SiteReference,Site_name,Description,Town,Magisterial_district,NHRA status,Latitude,Longitude
9/2/111/0001,"Old Cemeteries, Wynberg, Cape Town",,Wynberg,Wynberg,,,
9/2/111/0001/2,"St John's Anglican Cemetery, Wynberg, Cape Town",,Wynberg,Wynberg,,,
9/2/111/0001/3,"Garden of Remembrance, D R Church, Wynberg, Cape Town",,Wynberg,Wynberg,,-34.004632, 18.462067
9/2/111/0001/4,"Methodist Cemetery, Church Street, Wynberg",,Wynberg,Wynberg,,-34.004145, 18.466979
9/2/111/0002/50,"Chelsea Cloisters, 48 Durban Road, Wynberg",,Wynberg,Wynberg,,-34.007160, 18.462768
9/2/111/0002/60,"The Coach House and the Armory, Wolfe Street, Wynberg",,Wynberg,Wynberg,,,
9/2/111/002,"WYNBERG VILLAGE, GENERAL",,Wynberg,Wynberg,,,
9/2/111/002/1,"53-55 Waterloo Road, Wynberg, Cape Town",,Wynberg,Wynberg,,-34.008322, 18.462279
9/2/111/002/13,"10-12 Durban Road, Wynberg, Cape Town",,Wynberg,Wynberg,,-34.006791, 18.462411
9/2/111/002/18,"9 Riebeeck Street, Wynberg, Cape town",,Wynberg,Wynberg,,-34.006784, 18.462865
9/2/111/002/2,"35-43 Durban Road, Wynberg, Cape Town",,Wynberg,Wynberg,,-34.007160, 18.462766
9/2/111/002/3,"Young Lane, Wynberg, Cape Town (new terrace houses)",,Wynberg,Wynberg,,-34.005167, 18.463044
9/2/111/002/44,"Chelsea Horse, cnr Wolfe & Riebeeck Streets, Wynberg, Cape Town",,Wynberg,Wynberg,,-34.006556, 18.463372
9/2/111/002/48,"Ashley, Shirley, Ivanhoe and Mega cottages, Lonsdale Road, Wynberg",,Wynberg,Wynberg,,-34.008979, 18.462465
9/2/111/002/5,"Chelsea Corner, 59-63 Waterloo Road, Wynberg, Cape Town",,Wynberg,Wynberg,,-34.008842, 18.462169
9/2/111/002/52,"Hastings Place, Wynberg Village",,Wynberg,Wynberg,,,
9/2/111/002/54,"5 Riebeeck Street, Wynberg",,Wynberg,Wynberg,,-34.006462, 18.463169
9/2/111/002/56,"7 Mortimer Rd, Wynberg",,Wynberg,Wynberg,,-34.007895, 18.465322
9/2/111/002/61,"Forrester’s Inn, Durban Road, Wynberg",,Wynberg,Wynberg,,,
9/2/111/002/8,"1 Cornwall Place, Wynberg, Cape Town",,Wynberg,Wynberg,,-34.000710, 18.467374
9/2/111/0004,"Victoria Hospital, Wynberg, Cape Town",,Wynberg,Wynberg,,-34.012377, 18.458780
9/2/111/0005,"Eaton Rehabilitation Hospital, Main Road, Plumstead, Cape Town",,Plumstead,Wynberg,,,
9/2/111/0006,WYNBERG MUNICIPAL AREA GENERAL,,Wynberg,Wynberg,,,
9/2/111/0009,"Hout Bay Hotel, Hout Bay, Wynberg District",,Hout Bay,Wynberg,,-34.043185, 18.360574
9/2/111/0011,"HOUT BAY MUNICIPAL AREA GENERAL, WYNBERG DISTRICT",,Hout Bay,Wynberg,,,
9/2/111/0012,"""Southern Cross"", Bloemerf, Valley Road, Hout Bay, Wynberg District",,Hout Bay,Wynberg,,,
9/2/111/0014,"CONSTANTIA MUNICIPAL AREA GENERAL, WYNBERG DISTRICT",,Constantia,Wynberg,,,
9/2/111/0015/1,"Jonkershuis complex,  Groot Constantia, Constantia, Wynberg District",,Constantia,Wynberg,,-34.030659, 18.419072
9/2/111/0015/2,"Bertram wine cellar, Groot Constantia, Constantia, Wynberg District",,Constantia,Wynberg,,,
9/2/111/0015/3,"Old wine cellar, Groot Constantia, Constantia, Wynberg District",,Constantia,Wynberg,,,
9/2/111/0015/4,"Cloete cemetery, Groot Constantia, Wynberg District",,Constantia,Wynberg,,-34.016133, 18.440991
9/2/111/0015/5,"Colyn burial vault, Groot Constantia, Constantia, Wynberg District",,Constantia,Wynberg,,,
9/2/111/0015/6,"Main house, Groot Constantia, Constantia, Wynberg District",,Constantia,Wynberg,,-34.029691, 18.420806
9/2/111/0019,"Silviculturist Dwellings Nos 1 & 535, Tokai Forest, Wynberg District",,Tokai,Wynberg,,,
9/2/111/0020,"St Michael's Children's Home, Southfield , Cape Town",,Southfield,Wynberg,,-34.016752, 18.469177
9/2/111/0021,"KENILWORTH, GENERAL, CAPE TOWN",,Kenilworth,Wynberg,,,
9/2/111/0023,"""Bedford"", cnr Melbourne & Stamford Roads, Kenilworth, Cape Town",,Kenilworth,Wynberg,,-33.994814, 18.460419
9/2/111/0024,"""Sonnenhof"", Homestead Avenue, Bergvliet, Cape Town",,Bergvliet,Wynberg,,,
9/2/111/0027,"65 Bowwood Road, Claremont, Cape Town",,Claremont,Wynberg,,-33.987103, 18.453764
9/2/111/0029,"Old Masonic Temple, Main Road, Rondebosch, Cape Town",,Rondebosch,Wynberg,,,
9/2/111/0030,"Old Sasko Building, Belmont Road, Rondebosch, Cape Town",,Rondebosch,Wynberg,,,
9/2/111/0035,"Rondebosch Railway Station, Rondebosch, Cape Town",,Rondebosch,Wynberg,,-33.962200, 18.472447
9/2/111/0037,"Paradise, Ruins of Lady Anne Barnard's Cottage, Newlands, Cape Town",,Newlands,Wynberg,,,
9/2/111/0038,"Rhodes Recreation Grounds, Chapel Road, Rondebosch, Cape Town",,Rondebosch,Wynberg,,-33.953991, 18.468217
9/2/111/0039,"Glass Bottle Dump, Newlands, Cape Town",,Newlands,Wynberg,,,
9/2/111/0040,"15 Feldhausen Avenue, Claremont, Cape Town",,Claremont,Wynberg,,-33.981226, 18.459278
9/2/111/0041,"RONDEBOSCH, CAPE TOWN, GENERAL",,Rondebosch,Wynberg,,,
9/2/111/0042,"Rustenburg Girls Primary School, Rondebosch, Cape Town",,Rondebosch,Wynberg,,-33.956552, 18.478755
9/2/111/0043,"6 Glade Road, Rondebosch, Cape Town",,Rondebosch,Wynberg,,-33.964379, 18.473548
9/2/111/0045,"Church of the Good Shepherd, Kirstenbosch Drive, Bishopscourt, Cape",,Bishopscourt,Wynberg,,-33.986493, 18.436946
9/2/111/0046,"Wynberg Town Hall, Maynard Road, Maynard Road, Wynberg Cape Town",,Wynberg,Wynberg,,,
9/2/111/0047,"Michaelis House, Boys Hostel, Newlands Avenue, Newlands, Cape Town",,Newlands,Wynberg,,,
9/2/111/0051,"Wynberg Military Base, Wynberg, Cape Town",,Wynberg,Wynberg,,-34.008944, 18.461381
9/2/111/0057/1,"The Summer House, Belvedere, UCT Middle Campus, Rondebosch, Cape Town",,Rondebosch,Wynberg,,,
9/2/111/0057/2,"Arts Block, University of Cape Town, Rondebosch, Cape Town",,Rondebosch,Wynberg,,-33.958289, 18.461246
9/2/111/0058,"Highlands, 36 Tennant Road, Kenilworth, Cape Town",,Kenilworth,Wynberg,,-33.997045, 18.463492
9/2/111/0060,"Van Riebeeck's Hedge, Bishopscourt, Cape Town",,Bishopscourt,Wynberg,,,
9/2/111/0061,"NEWLANDS, GENERAL, CAPE TOWN",,Newlands,Wynberg,,,
9/2/111/0063,"RETREAT, GENERAL, CAPE TOWN",,Retreat,Wynberg,,,
9/2/111/0064,"Mostert's Mill Complex, Mowbray, Cape Town",,Mowbray,Wynberg,,,
9/2/111/0064/3,"Moster's Mill Miller's Homestead, Mowbray, Cape Town",,Mowbray,Wynberg,,,
9/2/111/0064/4,"Moster's Mill, Mowbray, Cape Town",,Mowbray,Wynberg,,,
9/2/111/0065/1,"Constantia Glen, cnr Lochner & Martin Roads, Constantia, Wynberg",,Constantia,Wynberg,,-34.023099, 18.457759
9/2/111/0067,"St. Andrews Church in the Oaks, 77 Kildare Road, Newlands, Cape Town",,Newlands,Wynberg,,-33.973897, 18.456084
9/2/111/0068,"Old Hout Bay Post Office, Main Road, Hout Bay",,Hout Bay,Wynberg,,-34.042408, 18.359147
9/2/111/0070,"Felday, 4 Erin Road, Rondebosch, Cape Town",,Rondebosch,Wynberg,,-33.960539, 18.476799
9/2/111/0072,"Groote Schuur Estate, Rondebosch, Cape Town",,Rondebosch,Wynberg,,-33.968933, 18.473721
9/2/111/0072/2,"Contents of Groote Schuur, Rondebosch, Cape Town",,Rondebosch,Wynberg,,,
9/2/111/0072/5,"Groote Schuur Zoo Site, Cape Town",,Rondebosch,Wynberg,,-33.961109, 18.459623
9/2/111/0076,"Montebello Stables, 31 Newlands Avenue, Newlands, Cape Town",,Newlands,Wynberg,,-33.970273, 18.457431
9/2/111/0077,"CLAREMONT, GENERAL, CAPE TOWN",,Claremont,Wynberg,,,
9/2/111/0078,"Burial Vault of John George Ratherfelder, Selby Road, Plumstead, Cape",,Plumstead,Wynberg,,,
9/2/111/0080,"Wittebomen, Wynberg District",,Wynberg,Wynberg,,,
9/2/111/0082,"19 Annerley Road, Rosebank, Cape Town",,Rosebank,Wynberg,,-33.970273, 18.457431
9/2/111/0083,"38 Sawkins Road, Rosebank, Cape Town",,Rosebank,Wynberg,,-33.951767, 18.482874
9/2/111/0085,"Block bounded by Piers, Durban, Wolfe Streets, Erf 90986, Wynberg",,Wynberg,Wynberg,,-34.007351, 18.462984
9/2/111/0085/01,"Petersklip, Piers Road, Wynberg",,Wynberg,Wynberg,,-34.007466, 18.464326
9/2/111/0085/02,"“West Villa”, 49 & 51 Durban Road, Wynberg",,Wynberg,Wynberg,,-34.007868, 18.463181
9/2/111/0085/03,"The Armoury, Wolfe Street, Wynberg",,Wynberg,Wynberg,,,
9/2/111/0085/04,"The Coach House, Piers Road, Wynberg",,Wynberg,Wynberg,,,
9/2/111/0086,"Albion Springs, Main Road, Newlands, Cape Town",,Newlands,Wynberg,,-33.967407, 18.467102
9/2/111/0087,"Conway Redoubt, Constantia Nek, Wynberg District",,Constantia,Wynberg,,,
9/2/111/0088,"Banksia, 2 Pine Street, Kenilworth, Cape Town",,Kenilworth,Wynberg,,-33.990713, 18.470218
9/2/111/0089,"Groot Moddergat, Main Road, Hout Bay",,Hout Bay,Wynberg,,,
9/2/111/0090,"Wynberg Park, Wynberg, Cape Town",,Wynberg,Wynberg,,-34.001409, 18.453305
9/2/111/0091,"Hohenhort, Claasenbosch, Constantia, Wynberg District",,Constantia,Wynberg,,-34.001902, 18.434524
9/2/111/0092,"Dunheved, 14 Main Road, Wynberg, Cape Town",,Wynberg,Wynberg,,-34.002980, 18.469245
9/2/111/0093,"La Plaisance, 2 Main Road, Wynberg, Cape Town",,Wynberg,Wynberg,,-34.002905, 18.469229
9/2/111/0095,"Wynberg Station precinct, Wynberg, Cape Town",,Wynberg,Wynberg,,-34.004111, 18.464876
9/2/111/0096,"50 Palmboom Road, Newlands, Cape Town",,Newlands,Wynberg,,-33.973981, 18.458552
9/2/111/0097,"4 Bexhill Road, Wynberg, Cape Town",,Wynberg,Wynberg,,-34.005340, 18.471967
9/2/111/0099,Reference see 9/2/111/0127,,,Wynberg,,,
9/2/111/0100,"Dutch Reformed Mission Church, Aliwal Road, Wynberg, Cape Town",,Wynberg,Wynberg,,-34.003858, 18.464023
9/2/111/0106,"Boshof house and gateway, Paradise Road, Newlands, Cape Town",,Newlands,Wynberg,,-33.978495, 18.450020
9/2/111/0106/2,"Boshof, Boschof Avenue, Newlands, Cape Town",,Newlands,Wynberg,,-33.978495, 18.450020
9/2/111/0119,"Rondebosch Boys' Preparatory School, Campground Road, Rondebosch, Cape",,Rondebosch,Wynberg,,-33.964473, 18.475323
9/2/111/0120,"Kenilworth Clinic, Kenilworth Road, Kenilworth, Cape Town",,Kenilworth,Wynberg,,-33.995167, 18.472279
9/2/111/0123,"Rhodes Memorial, Rondebosch, Cape Town",,Rondebosch,Wynberg,,-33.952458, 18.459426
9/2/111/0124,"Marsh Memorial homes, Norton Way, Rondebosch, Cape Town",,Rondebosch,Wynberg,,-33.964885, 18.493241
9/2/111/0125,"Athenaeum, 154 Campground Road, Newlands, Cape Town",,Newlands,Wynberg,,-33.976010, 18.467596
9/2/111/0126,"Dreyersdal Farm, Dreyersdal Road, Bergvliet, Cape Town",,Bergvliet,Wynberg,,-34.055720, 18.456128
9/2/111/0127,"WYNBERG MAGISTERIAL DISTRICT, GENERAL",,Wynberg,Wynberg,,,
9/2/111/0128,"Conservation areas, Wynberg District",,Wynberg,Wynberg,,,
9/2/111/0128/1,"Conservation areas, Mowbray, Rosebank, Rondebosch and Silwood, Wynberg",,,Wynberg,,,
9/2/111/0128/2,"Conservation Velley conservation areas, Wynberg District",,Wynberg,Wynberg,,,
9/2/111/0129,"ROSEBANK, CAPE TOWN, GENERAL",,Rosebank,Wynberg,,,
9/2/111/0130,"Oran Cayen graveyard, Tokai Road, Constantia, Wynberg District",,Constantia,Wynberg,,,
9/2/111/0131,"Parish Road cemetery, Constantia, Wynberg District",,Constantia,Wynberg,,,
9/2/111/0132,"Newlands Spring, Newlands, Cape Town",,Newlands,Wynberg,,,
9/2/111/0134,"Botanical Gardens, Kirstenbosch, Cape Town",,Rondebosch,Wynberg,,-33.987523, 18.432786
9/2/111/0135,"43 Liesbeeck Road, Rosebank, Cape Town",,Rosebank,Wynberg,,-33.951932, 18.478093
9/2/111/0136,"Irma Stern Museum, Cecil Road, Rosebank, Cape Town",,Rosebank,Wynberg,,-33.952930, 18.469325
9/2/111/0137,"Montebello House, Newlands Avenue, Newlands, Cape Town",,Newlands,Wynberg,,-33.970273, 18.457431
9/2/111/0138,"2 Richmond Road/20 Kenilworth Road, Kenilworth, Cape Town",,Kenilworth,Wynberg,,-33.995505, 18.471244
9/2/111/0138/1,"2 Richmond Road, Kenilworth, Cape Town",,Kenilworth,Wynberg,,-33.995505, 18.471244
9/2/111/0140,"Nooitgedacht Barn, cnr Lentedal & Valley Roads, Hout Bay",,Hout Bay,Wynberg,,,
9/2/111/0141,"Chapmans Peak Scenic Drive, Wynberg District",,Wynberg,Wynberg,,-34.057729, 18.366071
9/2/111/0142,"Klein Constantia, Klein Constantia Road, Constantia",,Constantia,Wynberg,,-34.039066, 18.412958
9/2/111/0144,"Old Organ (1897), Moravian Church, Bridgetown, Athlone",,Athlone,Wynberg,,,
9/2/111/0145,"Bishops Court, Newlands Wynberg District",,Newlands,Wynberg,,,
9/2/111/0146,"Kelvin Grove, Campground Road, Newlands",,Newlands,Wynberg,,-33.971160, 18.470215
9/2/111/0147,"Fernwood Newlands, Wynberg District",,Wynberg,Wynberg,,-33.979224, 18.446574
9/2/111/0148,"NYANGA/CROSSROADS LOCAL AREA, GENERAL",,Nyanga,Wynberg,,,
9/2/111/0149,"Historic Oak Avenue, Erf 4029, Hout Bay",,Hout Bay,Wynberg,,,
9/2/111/0151,"Springfield Convent Complex, Wynberg",,Wynberg,Wynberg,,-34.002813, 18.457587
9/2/111/0152,"Evangelical Lutheran Church, Philippi, Wynberg District",,Wynberg,Wynberg,,,
9/2/111/0153,"Burial Vaults, cnr Bishoplea and Feldhausen, Claremont",,Claremont,Wynberg,,-33.982194, 18.459545
9/2/111/0154,"Battswood School Complex, Wynberg",,Wynberg,Wynberg,,-34.011908, 18.502622
9/2/111/0155,"Maynardville, Block bounded by Wolfe, Church, Glaven and Piers Streets, Wynberg",,Wynberg,Wynberg,,-34.005659, 18.465706
9/2/111/0156,"House Raynham, 16 Boshof Avenue, Newlands",,Newlands,Wynberg,,-33.980380, 18.447697
9/2/111/0157,"Wynberg Relief Road, Wynberg District",,Wynberg,Wynberg,,,
9/2/111/0158,"Langa Local Area, General",,Langa,Wynberg,,,
9/2/111/0159,"Kramat, Erf 2610, Islam Hill, Constantia",,Constantia,Wynberg,,,
9/2/111/0160,"PLUMSTEAD LOCAL AREA GENERAL, WYNBERG DISTRICT",,Plumstead,Wynberg,,,
9/2/111/0161,"KHAYELITSHA LOCAL AREA GENERAL, WYNBERG DISTRICT",,Khayelitsha,Wynberg,,,
9/2/111/0162,"PHILIPPI LOCAL AREA GENERAL, WYNBERG DISTRICT",,Philippi,Wynberg,,,